[{"realName": "=dar ben mbarek", "realCountry": "tn", "foundedYear": 3, "realRegion": "32", "latitude": "34.801022", "longitude": "10.539701", "townseed": 876872435085.0, "happiness": 129, "devLevel": 5769, "culture": 0, "military": 1, "population": 5112.859375, "foodMod": 1, "resources": 784, "branchedFrom": "NA", "partOf": "=dar ben mbarek", "townId": 1}, {"realName": "=tobosi", "realCountry": "cr", "foundedYear": 5, "realRegion": "02", "latitude": "9.838372", "longitude": "-83.98391", "townseed": 347863543148.0, "happiness": 167, "devLevel": 5317, "culture": 0, "military": 1, "population": 2698.125, "foodMod": 5, "resources": 97, "branchedFrom": "NA", "partOf": "=tobosi", "townId": 2}, {"realName": "=freeman", "realCountry": "ag", "foundedYear": 18, "realRegion": "07", "latitude": "17.05", "longitude": "-61.7833333", "townseed": 373872647835.0, "happiness": 157, "devLevel": 4716, "culture": 0, "military": 1, "population": 3422.0, "foodMod": 8, "resources": 426, "branchedFrom": "NA", "partOf": "=freeman", "townId": 6}, {"realName": "=tibne", "realCountry": "jo", "foundedYear": 33, "realRegion": "02", "latitude": "32.475548", "longitude": "35.728436", "townseed": 394148248204.0, "happiness": 58, "devLevel": 4110, "culture": 0, "military": 1, "population": 2719.46875, "foodMod": 10, "resources": 77, "branchedFrom": "NA", "partOf": "=tibne", "townId": 9}, {"realName": "=guayatayoc", "realCountry": "ar", "foundedYear": 34, "realRegion": "10", "latitude": "-23.2", "longitude": "-65.866667", "townseed": 430580122267.0, "happiness": 130, "devLevel": 3728, "culture": 0, "military": 1, "population": 3301, "foodMod": 4, "resources": 57, "branchedFrom": "NA", "partOf": "=guayatayoc", "townId": 10}, {"realName": "=na lang", "realCountry": "vn", "foundedYear": 35, "realRegion": "19", "latitude": "22.616667", "longitude": "104.066667", "townseed": 556614059288.0, "happiness": 131, "devLevel": 3811, "culture": 0, "military": 1, "population": 2052.25, "foodMod": 4, "resources": 29, "branchedFrom": "NA", "partOf": "=na lang", "townId": 11}, {"realName": "al `ayn", "realCountry": "tn", "foundedYear": 36, "realRegion": "32", "latitude": "34.8", "longitude": "10.783333", "townseed": 864753425618.0, "happiness": 102, "devLevel": 3810, "culture": 0, "military": 1, "population": 3457.0, "foodMod": 10, "resources": 115, "branchedFrom": "=dar ben mbarek", "partOf": "=dar ben mbarek", "townId": 12}, {"realName": "=kojend", "realCountry": "tj", "foundedYear": 46, "realRegion": "03", "latitude": "40.28", "longitude": "69.6316667", "townseed": 443947078232.0, "happiness": 127, "devLevel": 3014, "culture": 0, "military": 1, "population": 2931, "foodMod": 5, "resources": 37, "branchedFrom": "NA", "partOf": "=kojend", "townId": 16}, {"realName": "=bir anzarane", "realCountry": "eh", "foundedYear": 47, "realRegion": "00", "latitude": "23.8833333", "longitude": "-14.5333333", "townseed": 845392790344.0, "happiness": 99, "devLevel": 3001, "culture": 0, "military": 1, "population": 2863, "foodMod": 8, "resources": 82, "branchedFrom": "NA", "partOf": "=bir anzarane", "townId": 17}, {"realName": "=atafu village", "realCountry": "tk", "foundedYear": 49, "realRegion": "00", "latitude": "-8.551667", "longitude": " -172.500833", "townseed": 443947078232.0, "happiness": 125, "devLevel": 2924, "culture": 0, "military": 1, "population": 2653, "foodMod": 5, "resources": 38, "branchedFrom": "NA", "partOf": "=atafu village", "townId": 18}, {"realName": "al ghurayyibah", "realCountry": "tn", "foundedYear": 49, "realRegion": "32", "latitude": "34.49555", "longitude": "10.211132", "townseed": 845392790344.0, "happiness": 99, "devLevel": 2924, "culture": 0, "military": 1, "population": 2653, "foodMod": 8, "resources": 88, "branchedFrom": "=dar ben mbarek", "partOf": "=dar ben mbarek", "townId": 19}, {"realName": "=kwamoktong", "realCountry": "kr", "foundedYear": 52, "realRegion": "17", "latitude": "36.4566", "longitude": "126.9573", "townseed": 540259431629.0, "happiness": 81, "devLevel": 2691, "culture": 0, "military": 1, "population": 2295, "foodMod": 7, "resources": 52, "branchedFrom": "NA", "partOf": "=kwamoktong", "townId": 22}, {"realName": "=al khudayrah", "realCountry": "om", "foundedYear": 59, "realRegion": "05", "latitude": "24.4833333", "longitude": "56.0666667", "townseed": 540259431629.0, "happiness": 88, "devLevel": 2276, "culture": 0, "military": 1, "population": 1669, "foodMod": 7, "resources": 32, "branchedFrom": "NA", "partOf": "=al khudayrah", "townId": 24}, {"realName": "al jamm", "realCountry": "tn", "foundedYear": 60, "realRegion": "15", "latitude": "35.3", "longitude": "10.716667", "townseed": 918452245326.0, "happiness": 100, "devLevel": 2194, "culture": 0, "military": 1, "population": 401, "foodMod": 5, "resources": 46, "branchedFrom": "=dar ben mbarek", "partOf": "=dar ben mbarek", "townId": 25}, {"realName": "abuela", "realCountry": "cr", "foundedYear": 60, "realRegion": "07", "latitude": "9.698904", "longitude": "-85.032528", "townseed": 383131813597.0, "happiness": 82, "devLevel": 2474, "culture": 0, "military": 1, "population": 2224.5, "foodMod": 9, "resources": 106, "branchedFrom": "=tobosi", "partOf": "=tobosi", "townId": 26}, {"realName": "er rumeimin", "realCountry": "jo", "foundedYear": 61, "realRegion": "02", "latitude": "32.106352", "longitude": "35.801764", "townseed": 918452245326.0, "happiness": 99, "devLevel": 2157, "culture": 0, "military": 1, "population": 381, "foodMod": 5, "resources": 47, "branchedFrom": "=tibne", "partOf": "=tibne", "townId": 27}, {"realName": "bethesda", "realCountry": "ag", "foundedYear": 62, "realRegion": "06", "latitude": "17.05", "longitude": "-61.75", "townseed": 383131813597.0, "happiness": 84, "devLevel": 2397, "culture": 0, "military": 1, "population": 1908.5, "foodMod": 9, "resources": 123, "branchedFrom": "=freeman", "partOf": "=freeman", "townId": 28}, {"realName": "=tengatangi village", "realCountry": "ck", "foundedYear": 66, "realRegion": "00", "latitude": "-19.9991667", "longitude": "-158.1155556", "townseed": 383131813597.0, "happiness": 88, "devLevel": 2242, "culture": 0, "military": 1, "population": 1258.5, "foodMod": 9, "resources": 98, "branchedFrom": "NA", "partOf": "=tengatangi village", "townId": 29}, {"realName": "=aamdals vaerk", "realCountry": "no", "foundedYear": 69, "realRegion": "17", "latitude": "59.366667", "longitude": "8.05", "townseed": 887917870161.0, "happiness": 96, "devLevel": 1968, "culture": 0, "military": 1, "population": 1917, "foodMod": 2, "resources": 12, "branchedFrom": "NA", "partOf": "=aamdals vaerk", "townId": 31}, {"realName": "=angmassalik", "realCountry": "gl", "foundedYear": 70, "realRegion": "02", "latitude": "65.6", "longitude": "-37.6333333", "townseed": 770518039684.0, "happiness": 98, "devLevel": 1976, "culture": 0, "military": 1, "population": 1621, "foodMod": 10, "resources": 11, "branchedFrom": "NA", "partOf": "=angmassalik", "townId": 32}, {"realName": "duleiqa", "realCountry": "jo", "foundedYear": 70, "realRegion": "09", "latitude": "31.035948", "longitude": "35.723694", "townseed": 674752152000.0, "happiness": 102, "devLevel": 1976, "culture": 0, "military": 1, "population": 1621, "foodMod": 1, "resources": 51, "branchedFrom": "=tibne", "partOf": "=tibne", "townId": 33}, {"realName": "al qasr as sa`id", "realCountry": "tn", "foundedYear": 71, "realRegion": "36", "latitude": "36.813056", "longitude": "10.123889", "townseed": 583711675037.0, "happiness": 105, "devLevel": 1921, "culture": 0, "military": 1, "population": 1741, "foodMod": 2, "resources": 14, "branchedFrom": "=dar ben mbarek", "partOf": "=dar ben mbarek", "townId": 34}, {"realName": "=bonolo", "realCountry": "za", "foundedYear": 72, "realRegion": "03", "latitude": "-29.213634", "longitude": "26.760732", "townseed": 591958577163.0, "happiness": 102, "devLevel": 1899, "culture": 0, "military": 1, "population": 1821, "foodMod": 2, "resources": 62, "branchedFrom": "NA", "partOf": "=bonolo", "townId": 35}, {"realName": "all saints village", "realCountry": "ag", "foundedYear": 73, "realRegion": "06", "latitude": "17.05", "longitude": "-61.8", "townseed": 326740852311.0, "happiness": 119, "devLevel": 1670, "culture": 0, "military": 1, "population": 379, "foodMod": 3, "resources": 24, "branchedFrom": "=freeman", "partOf": "=freeman", "townId": 36}, {"realName": "al `ayn", "realCountry": "tn", "foundedYear": 73, "realRegion": "32", "latitude": "34.8", "longitude": "10.783333", "townseed": 391607472518.0, "happiness": 103, "devLevel": 1859, "culture": 0, "military": 1, "population": 1695, "foodMod": 10, "resources": 17, "branchedFrom": "al `ayn", "partOf": "=dar ben mbarek", "townId": 37}, {"realName": "es saqra", "realCountry": "jo", "foundedYear": 79, "realRegion": "02", "latitude": "31.963715", "longitude": "35.894391", "townseed": 391607472518.0, "happiness": 101, "devLevel": 1432, "culture": 0, "military": 1, "population": 1035, "foodMod": 10, "resources": 17, "branchedFrom": "=tibne", "partOf": "=tibne", "townId": 38}, {"realName": "bajo guevara", "realCountry": "cr", "foundedYear": 80, "realRegion": "08", "latitude": "9.883521", "longitude": "-84.362335", "townseed": 429079983635.0, "happiness": 88, "devLevel": 1216, "culture": 0, "military": 1, "population": 211, "foodMod": 3, "resources": 71, "branchedFrom": "=tobosi", "partOf": "=tobosi", "townId": 39}, {"realName": "al mu`allaqah", "realCountry": "tn", "foundedYear": 81, "realRegion": "36", "latitude": "36.866667", "longitude": "10.316667", "townseed": 429079983635.0, "happiness": 87, "devLevel": 1140, "culture": 0, "military": 1, "population": 191, "foodMod": 3, "resources": 72, "branchedFrom": "=dar ben mbarek", "partOf": "=dar ben mbarek", "townId": 40}, {"realName": "ap nhut tay", "realCountry": "vn", "foundedYear": 81, "realRegion": "09", "latitude": "10.5", "longitude": "105.583333", "townseed": 235043195149.0, "happiness": 85, "devLevel": 1159, "culture": 0, "military": 1, "population": 281, "foodMod": 4, "resources": 44, "branchedFrom": "=na lang", "partOf": "=na lang", "townId": 41}, {"realName": "=la nourrice", "realCountry": "mu", "foundedYear": 84, "realRegion": "13", "latitude": "-20.2872222", "longitude": "57.7380556", "townseed": 849038798262.0, "happiness": 98, "devLevel": 1031, "culture": 0, "military": 1, "population": 273, "foodMod": 8, "resources": 38, "branchedFrom": "NA", "partOf": "=la nourrice", "townId": 42}, {"realName": "all saints village", "realCountry": "ag", "foundedYear": 85, "realRegion": "06", "latitude": "17.05", "longitude": "-61.8", "townseed": 90269646145.0, "happiness": 115, "devLevel": 889, "culture": 0, "military": 1, "population": 1, "foodMod": 1, "resources": 83, "branchedFrom": "=freeman", "partOf": "=freeman", "townId": 43}, {"realName": "fifi", "realCountry": "jo", "foundedYear": 88, "realRegion": "09", "latitude": "30.942756", "longitude": "35.444301", "townseed": 849038798262.0, "happiness": 98, "devLevel": 717, "culture": 0, "military": 1, "population": 157, "foodMod": 8, "resources": 38, "branchedFrom": "=tibne", "partOf": "=tibne", "townId": 44}, {"realName": "al katif", "realCountry": "tn", "foundedYear": 89, "realRegion": "03", "latitude": "35.633333", "longitude": "9.45", "townseed": 90269646145.0, "happiness": 111, "devLevel": 617, "culture": 0, "military": 1, "population": 1, "foodMod": 1, "resources": 687, "branchedFrom": "al `ayn", "partOf": "=dar ben mbarek", "townId": 45}, {"realName": "alto del roble", "realCountry": "cr", "foundedYear": 91, "realRegion": "04", "latitude": "10.087113", "longitude": "-84.079623", "townseed": 705163639620.0, "happiness": 101, "devLevel": 509, "culture": 0, "military": 1, "population": 1, "foodMod": 4, "resources": 62, "branchedFrom": "abuela", "partOf": "=tobosi", "townId": 46}, {"realName": "aine fezza", "realCountry": "dz", "foundedYear": 92, "realRegion": "15", "latitude": "34.8791667", "longitude": "-1.2383333", "townseed": 172538798805.0, "happiness": 108, "devLevel": 513, "culture": 0, "military": 1, "population": 125, "foodMod": 8, "resources": 46, "branchedFrom": "=dar ben mbarek", "partOf": "=dar ben mbarek", "townId": 47}, {"realName": "claremont", "realCountry": "ag", "foundedYear": 93, "realRegion": "05", "latitude": "17.0166667", "longitude": "-61.8166667", "townseed": 708080637900.0, "happiness": 101, "devLevel": 420, "culture": 0, "military": 1, "population": 1, "foodMod": 4, "resources": 80, "branchedFrom": "bethesda", "partOf": "=freeman", "townId": 48}, {"realName": "=cabo bojador", "realCountry": "eh", "foundedYear": 94, "realRegion": "00", "latitude": "26.1333333", "longitude": "-14.5", "townseed": 567440578178.0, "happiness": 100, "devLevel": 430, "culture": 0, "military": 1, "population": 64, "foodMod": 4, "resources": 18, "branchedFrom": "NA", "partOf": "=cabo bojador", "townId": 49}, {"realName": "barnes hill", "realCountry": "ag", "foundedYear": 95, "realRegion": "03", "latitude": "17.15", "longitude": "-61.8", "townseed": 603880359028.0, "happiness": 101, "devLevel": 365, "culture": 0, "military": 1, "population": 1, "foodMod": 4, "resources": 78, "branchedFrom": "=freeman", "partOf": "=freeman", "townId": 50}, {"realName": "azraq shishan", "realCountry": "jo", "foundedYear": 97, "realRegion": "02", "latitude": "31.832678", "longitude": "36.81531", "townseed": 840429026519.0, "happiness": 103, "devLevel": 202, "culture": 0, "military": 1, "population": 13, "foodMod": 7, "resources": 30, "branchedFrom": "=tibne", "partOf": "=tibne", "townId": 51}, {"realName": "an co", "realCountry": "vn", "foundedYear": 98, "realRegion": "65", "latitude": "9.506944", "longitude": "106.068611", "townseed": 254200276711.0, "happiness": 98, "devLevel": 183, "culture": 0, "military": 1, "population": 8, "foodMod": 6, "resources": 0, "branchedFrom": "=na lang", "partOf": "=na lang", "townId": 52}, {"realName": "tengatangi village", "realCountry": "ck", "foundedYear": 98, "realRegion": "00", "latitude": "-19.9991667", "longitude": "-158.1155556", "townseed": 437454722910.0, "happiness": 98, "devLevel": 179, "culture": 0, "military": 1, "population": 5, "foodMod": 4, "resources": 154, "branchedFrom": "=tengatangi village", "partOf": "=tengatangi village", "townId": 53}, {"realName": "alto de quitirriel", "realCountry": "cr", "foundedYear": 99, "realRegion": "08", "latitude": "9.869537", "longitude": "-84.236833", "townseed": 118967895263.0, "happiness": 101, "devLevel": 135, "culture": 0, "military": 1, "population": 1, "foodMod": 2, "resources": 66, "branchedFrom": "=tobosi", "partOf": "=tobosi", "townId": 54}]